[
  {
    "id": 1,
    "name": "Өскемен",
    "lat": 49.95,
    "lon": 82.61,
    "image": "https://images.unsplash.com/photo-1578307501300-98357f88410d?q=80&w=1000",
    "desc": "Облыс орталығы, Ертіс пен Үлбі өзендерінің тоғысқан жеріндегі заманауи қала.",
    "hotels": ["Shiny River", "Dedeman Oskemen", "Best Western Plus"],
    "restaurants": ["BarBQ", "Zebra", "Две Реки"],
    "tours": ["Қалалық панорама - 5000₸", "Мұражайлар шеруі - 4000₸"]
  },
  {
    "id": 2,
    "name": "Қатон-Қарағай",
    "lat": 49.17,
    "lon": 85.51,
    "image": "https://images.unsplash.com/photo-1464822759023-fed622ff2c3b?q=80&w=1000",
    "desc": "Алтайдың інжу-маржаны, ЮНЕСКО тізіміне енген ұлттық табиғи парктің мекені.",
    "hotels": ["Ecosphere Katun", "Muztau Lodge", "Орман үйі"],
    "restaurants": ["Тау тағамы", "Local Altai Kitchen"],
    "tours": ["Пантымен емделу - 15000₸", "Беркутичи шоу - 7000₸"]
  },
  {
    "id": 3,
    "name": "Семей",
    "lat": 50.41,
    "lon": 80.25,
    "image": "https://images.unsplash.com/photo-1541963463532-d68292c34b19?q=80&w=1000",
    "desc": "Қазақстанның рухани астанасы, Абай мен Шәкәрімнің ізі қалған тарихи қала.",
    "hotels": ["Nomad Hotel", "Semey City", "Tura Hotel"],
    "restaurants": ["Arbat Lounge", "Chili Bistro", "Папа Карло"],
    "tours": ["Абай мұражайына саяхат - 3000₸", "Аспалы көпір туры - 2000₸"]
  },
  {
    "id": 4,
    "name": "Риддер",
    "lat": 50.35,
    "lon": 83.51,
    "image": "https://images.unsplash.com/photo-1472791108553-c9405341e398?q=80&w=1000",
    "desc": "Қалың орман мен асқар таулардың ортасындағы таза ауа мен туризм орталығы.",
    "hotels": ["Ridder Resort", "Altai Alps", "Эдельвейс"],
    "restaurants": ["Polyana Kitchen", "Gorniy Grill"],
    "tours": ["Тікенді шыңына жаяу тур - 8000₸", "Қысқы шаңғы туры - 12000₸"]
  },
  {
    "id": 5,
    "name": "Бұқтырма су қоймасы",
    "lat": 49.61,
    "lon": 83.52,
    "image": "https://images.unsplash.com/photo-1501785888041-af3ef285b470?q=80&w=1000",
    "desc": "Қазақстандық 'теңіз', жазғы демалыс пен балық аулаудың таптырмас орны.",
    "hotels": ["Blue Bay Resort", "Aina Holiday", "Лазурный"],
    "restaurants": ["Berega Terrace", "Fish House Bukh"],
    "tours": ["Катермен серуен - 6000₸", "Түнгі балық аулау - 10000₸"]
  },
  {
    "id": 6,
    "name": "Марқакөл көлі",
    "lat": 48.75,
    "lon": 86.01,
    "image": "https://images.unsplash.com/photo-1439853949127-fa647821eba0?q=80&w=1000",
    "desc": "Тау арасындағы мөлдір айна, сирек кездесетін балықтар мен құстардың мекені.",
    "hotels": ["Урунхайка Guest House", "Eco Camp Marka"],
    "restaurants": ["Nature Menu", "Балықшылар асханасы"],
    "tours": ["Қорық соқпақтары - 7000₸", "Фото-сафари - 9000₸"]
  },
  {
    "id": 7,
    "name": "Алакөл (ШҚО жағы)",
    "lat": 46.15,
    "lon": 81.72,
    "image": "https://images.unsplash.com/photo-1507525428034-b723cf961d3e?q=80&w=1000",
    "desc": "Емдік қасиеті бар қара сулы көл, тері ауруларына бірден-бір ем.",
    "hotels": ["Alakol Resort", "Grand Ville", "Алтын Адам"],
    "restaurants": ["Sea Breeze", "Pelikan Grill"],
    "tours": ["Аралдарға саяхат - 8000₸", "Емдік балшық туры - 4000₸"]
  },
  {
    "id": 8,
    "name": "Рахман қайнарлары",
    "lat": 49.23,
    "lon": 86.48,
    "image": "https://images.unsplash.com/photo-1520962880247-cfaf541c8724?q=80&w=1000",
    "desc": "Аңызға толы емдік сулар мен мұзды таулардың астындағы шипажай.",
    "hotels": ["Rahman Springs Lodge", "VIP Коттедж"],
    "restaurants": ["Шипалы ас", "Bio-Kitchen"],
    "tours": ["Радонды ванналар - 12000₸", "Мұздыққа экспедиция - 25000₸"]
  },
  {
    "id": 9,
    "name": "Белуха тауы (Мұзтау)",
    "lat": 49.81,
    "lon": 86.58,
    "image": "https://images.unsplash.com/photo-1454496522488-7a8e488e8606?q=80&w=1000",
    "desc": "Алтайдың ең биік шыңы, альпинистер мен рухани ізденушілердің киелі мекені.",
    "hotels": ["Base Camp Belukha", "Экспедициялық шатырлар"],
    "restaurants": ["Camp Food Altai"],
    "tours": ["Шыңға шығу (кәсіби) - 150000₸", "Тау етегіне атпен тур - 30000₸"]
  },
  {
    "id": 10,
    "name": "Зайсан көлі",
    "lat": 47.46,
    "lon": 84.87,
    "image": "https://images.unsplash.com/photo-1441974231531-c6227db76b6e?q=80&w=1000",
    "desc": "Ежелгі көл, тарихы терең және балық ресурстарына өте бай аймақ.",
    "hotels": ["Zaysan Grand", "Көл жағасы үйлері"],
    "restaurants": ["Korgau Arna", "Балық пати"],
    "tours": ["Тарихи қазбалар туры - 6000₸", "Қайықпен балық аулау - 8000₸"]
  },
  {
    "id": 11,
    "name": "Қиын Керіш (Марс)",
    "lat": 48.21,
    "lon": 84.58,
    "image": "https://images.unsplash.com/photo-1501597339112-6804566f7f2b?q=80&w=1000",
    "desc": "Қызыл сазды шатқалдар, Марс планетасының көрінісін еске түсіреді.",
    "hotels": ["Camping Zone", "Күршім қонақ үйлері"],
    "restaurants": ["Пикник меню"],
    "tours": ["Марсқа саяхат (фото-тур) - 15000₸"]
  },
  {
    "id": 12,
    "name": "Ақбауыр",
    "lat": 49.75,
    "lon": 82.68,
    "image": "https://images.unsplash.com/photo-1518709268805-4e9042af9f23?q=80&w=1000",
    "desc": "Ежелгі обсерватория, тасқа қашалған жазулары бар жұмбақ мекен.",
    "hotels": ["Өскемен қонақ үйлері"],
    "restaurants": ["Этно-кафе Ақбауыр"],
    "tours": ["Археологиялық экскурсия - 4000₸"]
  },
  {
    "id": 13,
    "name": "Сібе көлдері",
    "lat": 49.42,
    "lon": 82.63,
    "image": "https://images.unsplash.com/photo-1476514525535-07fb3b4ae5f1?q=80&w=1000",
    "desc": "Гранитті таулардың арасында орналасқан бес мөлдір көл.",
    "hotels": ["Sibe Holiday", "Домик у озера"],
    "restaurants": ["Lake Side Grill"],
    "tours": ["Көлдер шеруі (жаяу) - 5000₸", "Дайвинг - 15000₸"]
  },
  {
    "id": 14,
    "name": "Қоңыр Әулие үңгірі",
    "lat": 49.12,
    "lon": 79.25,
    "image": "https://images.unsplash.com/photo-1519709038946-095595914757?q=80&w=1000",
    "desc": "Шыңғыстау етегіндегі киелі үңгір, ішінде шипалы көлі бар.",
    "hotels": ["Зияратшылар үйі"],
    "restaurants": ["Ұлттық тағамдар кафесі"],
    "tours": ["Киелі орындар туры - 7000₸"]
  },
  {
    "id": 15,
    "name": "Тарбағатай қорығы",
    "lat": 47.15,
    "lon": 82.25,
    "image": "https://images.unsplash.com/photo-1511497584788-876760111969?q=80&w=1000",
    "desc": "Бай флора мен фаунасы бар, табиғат жанашырларына арналған жұмақ.",
    "hotels": ["Eco-Lodge Tarbagatay"],
    "restaurants": ["Organic Food"],
    "tours": ["Құстарды бақылау - 6000₸"]
  },
  {
    "id": 16,
    "name": "Күршім",
    "lat": 48.56,
    "lon": 83.65,
    "image": "https://images.unsplash.com/photo-1500623399104-ed1427ad7b4f?q=80&w=1000",
    "desc": "Ертіс өзенінің арғы бетіндегі, нағыз ауылдық колорит пен табиғат мекені.",
    "hotels": ["Kurshim Inn"],
    "restaurants": ["Ертіс жағасы"],
    "tours": ["Пароммен өту экскурсиясы - 3000₸"]
  },
  {
    "id": 17,
    "name": "Шемонаиха",
    "lat": 50.62,
    "lon": 81.91,
    "image": "https://images.unsplash.com/photo-1500382017468-9049fed747ef?q=80&w=1000",
    "desc": "Әдебиет пен тарих тоғысқан, 'Марьин утес' жартасымен танымал қала.",
    "hotels": ["Shemonaikha City"],
    "restaurants": ["Утёс Bistro"],
    "tours": ["Әдеби жолдар - 4000₸"]
  },
  {
    "id": 18,
    "name": "Зырян (Алтай қаласы)",
    "lat": 49.73,
    "lon": 84.26,
    "image": "https://images.unsplash.com/photo-1464822759023-fed622ff2c3b?q=80&w=1000",
    "desc": "Тау-кен өндірісінің орталығы, айналасы биік таулармен қоршалған.",
    "hotels": ["Altai Hotel", "Таулы мекен"],
    "restaurants": ["Vostok Bar", "Taiga Lounge"],
    "tours": ["Шахталар тарихы - 6000₸"]
  },
  {
    "id": 19,
    "name": "Үбі (Уба) өзені",
    "lat": 50.48,
    "lon": 82.35,
    "image": "https://images.unsplash.com/photo-1470071459604-3b5ec3a7fe05?q=80&w=1000",
    "desc": "Рафтинг пен экстремалды туризмді ұнататындарға арналған асулы өзен.",
    "hotels": ["River Camp Uba"],
    "restaurants": ["Grill on Water"],
    "tours": ["Рафтинг (сплав) - 20000₸"]
  },
  {
    "id": 20,
    "name": "Аюда",
    "lat": 49.35,
    "lon": 83.12,
    "image": "https://images.unsplash.com/photo-1506744038136-46273834b3fb?q=80&w=1000",
    "desc": "Бұқтырма жағалауындағы қарағайлы орман мен таза жағажайы бар демалыс орны.",
    "hotels": ["Аюда демалыс базасы", "Орман үйшіктері"],
    "restaurants": ["Forest Grill"],
    "tours": ["Орман соқпағы - 3000₸"]
  }
]